date,n_killed,address,lat,long,
01/01/2018,0,100 block of Hewitt St Trenton,40.20816,-74.7476472,
01/01/2018,0,Orton Marotta Way Boston,42.3377959,-71.0567422,
01/01/2018,0,236 Dorchester St Boston,42.3326075,-71.0533171,
01/01/2018,1,5400 block of Crittenden St Oakland,37.7698671,-122.2060807,
01/01/2018,0,Riley St and Roehrer Ave Buffalo,42.9093298,-78.8512981,
01/01/2018,0,Sapphire Dr and Quartz Dr Auburn,38.9479355,-121.1041401,
01/01/2018,0,Colonel Glenn Road Little Rock,34.7191726,-92.355972,
01/01/2018,1,Bell Springs Rd and Alderpoint Rd Garberville,40.1007723,-123.6890076,
01/01/2018,0,1300 block of Princeton Ave Kalamazoo,42.3034255,-85.5909646,
01/01/2018,1,807 W 22nd St Lorain,41.4495019,-82.1773122,
01/01/2018,1,Olympia and Grand River Ave Redford Charter Township,-20.1261056,57.5340544,
01/01/2018,0,636 W Florida Ave Hemet,33.7477865,-116.9800264,
01/01/2018,0,800 block of E State Fair Detroit,42.4397156,-83.0983481,
01/01/2018,1,1524 W 205th St Torrance,33.8445964,-118.3070783,
01/01/2018,0,S Summit Dr and Hwy 54 Holts Summit,-20.1261056,57.5340544,
01/01/2018,0,10900 W Calle del Sol Phoenix,33.4958415,-112.2965832,
01/01/2018,0,Gregg St and Oak St Houston,-20.1261056,57.5340544,
01/01/2018,0,3600 Celtic Dr Indianapolis,39.8229549,-86.005829,
01/01/2018,0,800 N Colorado Ave Indianapolis,39.7775112,-86.0975385,
01/01/2018,0,8100 block of Pines Road Shreveport,32.423726,-93.8603979,
01/01/2018,0,4000 Arquette Dr Indianapolis,39.8305864,-85.9994737,
01/01/2018,0,Coyote Valley Blvd Redwood Valley,39.2547492,-123.2110673,
01/01/2018,0,3200 N Park Ave Indianapolis,39.8140441,-86.1494873,
01/01/2018,1,147 Meadowview Dr Rossville,34.939367,-85.3143247,
01/01/2018,0,121 NE 3rd St Prineville,44.3032491,-120.8488378,
01/01/2018,0,US-1 BYP Portsmouth,43.081538,-70.7696992,
01/01/2018,0,3800 block of Victoria Drive Baton Rouge,30.4854106,-91.1194449,
01/01/2018,0,Kenton Ln Cleveland,-20.1261056,57.5340544,
01/01/2018,0,Oakley Ave and Blaisdell St Rockford,42.2821529,-89.1170262,
01/01/2018,0,Roughan St Revere,42.4005917,-70.9880203,
01/01/2018,1,Byron St Youngstown,41.091829,-80.6254473,
01/01/2018,0,1900 N Western Ave Chicago,41.915888,-87.6899317,
01/01/2018,1,100 block of West Bilby Rd Tucson,32.1412692,-110.9714119,
01/01/2018,2,5900 block of Kennerly Ave Saint Louis,38.6780201,-90.2819157,
01/01/2018,0,215 Patrick Dr Schriever,29.7353271,-90.8414231,
01/01/2018,0,600 N Gibson St Princeton,38.36027,-87.5668288,
01/01/2018,0,1900 block of Pulver Rd Mansfield,40.7081094,-82.4571753,
01/01/2018,0,Baring Cross and W 88th St Los Angeles,33.9579518,-118.2915485,
01/01/2018,1,3400 block of Adeline St Oakland,37.8255183,-122.2825501,
01/01/2018,0,S 32nd St and J St Lincoln,40.8080163,-96.6774167,
01/01/2018,0,N Scott St South Bend,41.6814989,-86.2619447,
01/01/2018,0,4400 Block of Skidaway Rd Savannah,32.0276191,-81.0727952,
01/01/2018,0,2305 Farmer St Charlotte,35.2091955,-80.8971006,
01/01/2018,0,300 block of E 2nd St Pueblo,38.2688587,-104.6061587,
01/01/2018,0,1304 Fort Campbell Blvd Clarksville,36.5595433,-87.4025821,
01/01/2018,1,25 Unit St Providence,41.8261315,-71.4564983,
01/01/2018,0,334 S Water St Providence,41.8207935,-71.4063507,
01/01/2018,0,Carson St Planada,37.2941111,-120.322377,
01/01/2018,0,Washington Blvd Jersey City,40.727351,-74.0368236,
01/01/2018,0,Martin Luther King Dr and Virginia Ave Jersey City,40.7120147,-74.0800745,
01/01/2018,0,N 47th Ave and Miami St Omaha,41.2831451,-95.9865067,
01/01/2018,0,Martin Luther King Dr and Warner Ave Jersey City,40.7012244,-74.0924913,
01/01/2018,2,100 block of Taylor St Orange,-20.1261056,57.5340544,
01/01/2018,0,N 43rd St and Pinkney St Omaha,41.290501,-95.9798054,
01/01/2018,0,49th St N and MLK Jr Blvd Tulsa,36.2242171,-95.9956891,
01/01/2018,0,1000 block of 91st Ave Oakland,37.746133,-122.1823036,
01/01/2018,0,2701 W Jefferson Blvd Fort Wayne,41.0741594,-85.1775445,
01/01/2018,0,145 Summer St New Bedford,41.6405054,-70.9350517,
01/01/2018,1,Market Square Knoxville,35.9655685,-83.921978,
01/01/2018,0,147 4th St Leominster,42.5251923,-71.7520435,
01/01/2018,0,Hudson St Hartford,41.759718,-72.6798331,
01/01/2018,0,63 Dalessio Ct Boston,42.339713,-71.0557155,
01/01/2018,0,2701 23rd Ave Council Bluffs,41.236736,-95.8888581,
01/01/2018,0,1700 block of Fordem Ave Madison,43.0943184,-89.3663881,
01/01/2018,1,1303 W Charles St Grand Island,40.9158165,-98.3522983,
01/01/2018,1,2012 Colerain Ave Cincinnati,39.11907,-84.5347129,
01/01/2018,1,N Gilmore Heights Rd Jacksonville,30.3584934,-81.5545786,
01/01/2018,0,400 block of S 24th St Saint Joseph,39.7642887,-94.8337301,
01/01/2018,0,Hollis Ave Campbell,37.27706,-121.9561496,
01/01/2018,1,870 Osceola Trl Casselberry,28.689762,-81.3221022,
01/01/2018,0,1200 Block of Tallassee Rd Athens,33.9810501,-83.4652669,
01/01/2018,0,900 block of Wildphlox Way Boise,-20.1261056,57.5340544,
01/01/2018,1,7814 Bastille Rd Severn,39.1372264,-76.7261684,
01/01/2018,0,Bay St Rochester,43.171078,-77.5797329,
01/01/2018,0,600 block of Wilkins St Rochester,43.1790857,-77.595897,
01/01/2018,1,2940 Colorado St Columbus,-20.1261056,57.5340544,
01/01/2018,0,71 B St Boston,42.3396513,-71.0571082,
01/01/2018,0,Windridge Cir Inman,35.0962849,-82.0457124,
01/01/2018,0,118 Harrison St Waterloo,-20.1261056,57.5340544,
01/01/2018,0,1700 block of NW Lyman Rd Topeka,39.087635,-95.6890283,
01/01/2018,0,2300 block of S 1st St Leavenworth,-20.1261056,57.5340544,
01/01/2018,0,4000 W Oakdale Ave Chicago,41.9349201,-87.6876967,
01/01/2018,0,100 Block of N Running Deer Cir Dudley,-20.1261056,57.5340544,
01/01/2018,0,Sulphur Springs Rd Duncannon,40.427082,-77.0572637,
01/01/2018,0,300 block of Folk St Easton,40.6816467,-75.210588,
01/01/2018,0,La Brea Ln Laredo,27.4517115,-99.4721626,
01/01/2018,0,6317 Charlotte Pike Nashville,36.1448091,-86.8737666,
01/01/2018,1,10498 Fountain Lake Dr Stafford,29.637601,-95.598588,
01/01/2018,0,1500 block of Reaney Ave E Saint Paul,44.9637729,-93.0392883,
01/01/2018,0,Edgewood St Hartford,41.7830241,-72.6927886,
01/01/2018,0,B St Boston,42.3406228,-71.0563287,
01/01/2018,0,9621 E Pine St Tulsa,36.1775143,-95.8715848,
01/01/2018,1,548 W Dickson Street Fayetteville,36.0673697,-94.1682227,
01/01/2018,2,9200 block of McKinney St Detroit,42.4092216,-82.9536846,
01/01/2018,0,2200 block of N 23rd St Philadelphia,39.9886707,-75.1730264,
01/01/2018,1,2944 Unity Tree Dr Edgewater,28.9421336,-80.9122687,
01/01/2018,3,Starlight Lane Romance,-20.1261056,57.5340544,
01/01/2018,0,3770 Las Vegas Blvd S Las Vegas,36.1050092,-115.1758197,
01/01/2018,0,33rd and Meredith Omaha,-20.1261056,57.5340544,
01/01/2018,0,1109 Thomas S Boyland St Brooklyn,40.6531866,-73.9113207,
01/01/2018,0,2214 Church Ave Brooklyn,40.6502977,-73.9601518,
01/01/2018,0,500 W 127th Pl Chicago,41.662375,-87.6362519,
01/01/2018,1,731 Fawn Dr Houston,29.7848821,-95.2025061,
01/01/2018,0,6100 N Claremont Ave Chicago,41.904851,-87.6880428,
01/01/2018,0,1 N Wabash Ave Chicago,41.8822017,-87.6280012,
01/01/2018,0,101 Robbins St Concord,35.4005433,-80.5900569,
01/01/2018,0,5400 W Jackson Blvd Chicago,41.8768306,-87.7618651,
01/01/2018,0,Orange and 9th Fresno,-20.1261056,57.5340544,
01/01/2018,0,8100 S Drexel Ave Chicago,41.7473704,-87.6052749,
01/01/2018,0,Avenue N and Bedford Ave Brooklyn,40.6166771,-73.951996,
01/01/2018,0,Saint Paul‚Äôs St Richmond,-20.1261056,57.5340544,
01/01/2018,0,1700 block of N 24th St Richmond,37.5446074,-77.4103673,
01/01/2018,1,904 Vandiver Dr Columbia,38.970628,-92.3283376,
01/01/2018,0,Wentworth Ct E Minneapolis,44.891475,-93.282199,
01/01/2018,1,Wight St Roxton,33.5486254,-95.7285848,
01/01/2018,1,12700 block of NE 36th St Spencer,-20.1261056,57.5340544,
01/01/2018,0,5800 block of E Speedway Blvd Tucson,32.2360856,-110.8710306,
01/01/2018,0,1100 Eagle Ridge Trl Stillwater,45.065947,-92.8407977,
01/01/2018,0,5900 block of E 6th Ave Anchorage,61.2163293,-149.7716573,
01/01/2018,0,W State St and N 37th St Milwaukee,43.0433463,-87.9620979,
01/01/2018,0,800 N Washington Ave Kankakee,41.1291553,-87.8680186,
01/01/2018,0,5110 N 40th St Tampa,27.9929664,-82.4166648,
01/01/2018,0,3800 W 71st St Chicago,41.7643943,-87.7198636,
01/01/2018,1,6000 block of Ragan Farm Memphis,35.0010723,-89.8555028,
01/01/2018,1,1100 block of W Turner St Allentown,40.6028113,-75.4833598,
01/01/2018,0,114 Smith St Newbern,-20.1261056,57.5340544,
01/01/2018,0,Fort St Wyandotte,42.2125343,-83.1827707,
01/01/2018,0,2515 West Garden St Peoria,40.6762321,-89.6357938,
01/01/2018,0,100 block of Reds Pl Charleston (Cross Lanes),38.4265307,-81.7655103,
01/01/2018,2,Garrett Hill Rd Saint Clairsville,40.0231024,-80.8852766,
01/01/2018,1,De la Vina St and Victoria St Santa Barbara,34.4221719,-119.7101868,
01/01/2018,1,W 35th St Norfolk,36.8779667,-76.2947611,
01/01/2018,1,Northeast 36th Street and Hiwassee Road Oklahoma City,35.5945115,-97.302534,
01/01/2018,1,Wakefield Street Hopewell,37.2799489,-77.2946157,
01/01/2018,1,3900 block of Airport Hwy Toledo,41.6219559,-83.6376464,
01/01/2018,0,Hawthorne Dr Melbourne,28.1202427,-80.6293554,
01/01/2018,2,2121 Winners Cir Baker,-20.1261056,57.5340544,
01/01/2018,0,400 block of Delaware Ave Dayton,39.7767511,-84.2155146,
01/01/2018,0,Sutphin Blvd and Jamaica Ave Corona (Queens),40.7017595,-73.8101356,
01/01/2018,0,Lovic Rd and Oak Ridge Rd Tallahassee,30.324414,-84.2826199,
01/01/2018,2,5809 50th St N Tampa,28.001111,-82.4031771,
01/01/2018,2,8708 3rd Ave Holly Ridge (North Topsail Beach),-20.1261056,57.5340544,
01/01/2018,0,920 47th Ave Greeley,40.4227668,-104.7570008,
01/01/2018,1,Brunswick St and Montgomery St Jersey City,40.720071,-74.054551,
01/01/2018,0,4th St and Grand Ave Grand Junction,39.0703766,-108.5683323,
01/01/2018,0,Whitesbridge Ave and Thorne Ave Fresno,36.735853,-119.8150968,
01/01/2018,0,KY 1426 Banner,37.5673093,-82.6948419,
01/01/2018,0,1200 block of Norview Ave Norfolk,36.8901755,-76.2397538,
01/01/2018,0,E 71st St and Gertrude Ave Cleveland,41.4544724,-81.6410899,
01/01/2018,0,Wanda and Six Mile Detroit,-20.1261056,57.5340544,
01/01/2018,1,2100 block of Lee St SW Wyoming,42.9228274,-85.7205574,
01/01/2018,0,1000 Almaden St Eugene,44.048944,-123.1182898,
01/01/2018,0,3064 Ivy Glen Dr Eugene,44.0412031,-123.139041,
01/01/2018,1,23077 SW Main St Sherwood,45.3516245,-122.8446473,
01/01/2018,0,2404 Santa Barbara Blvd Cape Coral,26.6073,-81.9769401,
01/01/2018,0,Sherri Ln Sicklerville,39.7680546,-75.0010082,
01/01/2018,0,1505 S Rd 40 E Pasco,46.2143729,-119.0460085,
01/01/2018,0,1800 Block of S Tryon St Charlotte,35.2139808,-80.8646805,
01/01/2018,0,Waldo Rd Gainesville,29.6329153,-82.3225149,
01/01/2018,0,100 block of Electric Ave Woodward,-20.1261056,57.5340544,
01/01/2018,0,2514 Martin Luther King Jr Ave Knoxville,35.9833608,-83.8949162,
01/01/2018,1,6400 block of William Dr Bessemer (Concord),33.4743209,-87.0413203,
01/01/2018,0,200 block of Fayette St Bridgeton,39.4220999,-75.2443293,
01/01/2018,1,643 Stockton St Jacksonville,30.3191368,-81.6924678,
01/01/2018,0,1300 block of East White St Rock Hill,34.9169885,-81.0050888,
01/01/2018,0,Gratiot and Eastburn Detroit,42.445256,-82.9731756,
01/01/2018,0,3458 Rapids Dr. Racine,42.7524529,-87.8220693,
01/01/2018,0,1300 block of E 85th St Cleveland,41.520162,-81.6310167,
01/01/2018,0,Van Dyke and Hollywood Detroit,-20.1261056,57.5340544,
01/01/2018,1,3000 W Park Dr Gautier,30.3835139,-88.6525643,
01/01/2018,1,E 6th St and Temple Ave Long Beach,-20.1261056,57.5340544,
01/01/2018,1,4700 S Princeton Ave Chicago,41.8090829,-87.6355604,
01/01/2018,0,W Capitol Dr and N 92 St Milwaukee,43.0959805,-88.0297426,
01/01/2018,0,14300 block of Pontlavoy Ave Norwalk,33.9023523,-118.0514353,
01/01/2018,0,Dickson St Youngstown,41.080848,-80.6460675,
01/01/2018,0,De Tonty St and Lawrence St Saint Louis,38.6169732,-90.2500113,
01/01/2018,0,US 84 and Crabapple Dr Thomasville,30.8224813,-83.8947612,
01/01/2018,0,6200 block of Cardiff Ave Baltimore,39.2763104,-76.5438451,
01/01/2018,0,13th St and Muhammad Ali Blvd Louisville,-20.1261056,57.5340544,
01/01/2018,0,Longwood Drive Jackson,32.2610279,-90.2571478,
01/01/2018,1,2000 block of Eagle St Baltimore,39.280969,-76.6495893,
01/01/2018,1,5100 block of Goodnow Rd Baltimore,39.3267951,-76.5473767,
01/01/2018,0,40 W Orange St Lancaster,40.0390795,-76.3096276,
01/01/2018,0,1800 block of W Pratt St Baltimore,39.2854689,-76.6475323,
01/01/2018,0,Chateau Dr Olive Branch,34.9263784,-89.8044906,
01/01/2018,1,Conch Dr and Terre Haute Rd La Harpe,40.5891189,-90.9719611,
01/01/2018,1,2025 Sparkman Dr NW Huntsville,34.7628076,-86.5967454,
01/01/2018,0,700 Block of Cherry St Salisbury,-20.1261056,57.5340544,
01/01/2018,0,1260 West Alexis Rd Toledo,41.7220985,-83.5753996,
01/01/2018,0,2800 block of E MacArthur Rd Wichita,37.6232965,-97.3048262,
01/01/2018,0,1600 block of Crowley St E Wichita,37.6376419,-97.3203146,
01/01/2018,0,2400 block of S Mosley St Wichita,37.6495513,-97.3297852,
01/01/2018,0,1200 block of Pacific Ave San Leandro,37.7217962,-122.1693992,
01/01/2018,0,Jefferson Paige Road and I-220 Shreveport,-20.1261056,57.5340544,
01/01/2018,1,1200 Ridgeway Dr Wichita Falls,33.9371953,-98.5274545,
01/01/2018,0,100 block of Ellicott St Rochester,43.1336427,-77.6447715,
01/01/2018,0,4400- block of South Travis Amarillo,35.1653984,-101.8587287,
01/01/2018,1,3300 block of N Miro St New Orleans,29.9783283,-90.0403552,
01/01/2018,1,1406 S. Bedford Evansville,37.957944,-87.5520301,
01/01/2018,0,Charles Polk Rd Dover,39.125841,-75.5383061,
01/01/2018,1,2600 block of Balis Dr Baton Rouge,30.4244173,-91.1438131,
01/01/2018,1,4th Ave and D St Anchorage,-20.1261056,57.5340544,
01/01/2018,0,New Carver St Raynham,41.9562496,-71.0832415,
01/01/2018,1,3200 block of 110th St Lubbock,33.4947713,-101.8857942,
01/01/2018,0,4300 block of Frederick Ave Baltimore,39.2818789,-76.6897941,
01/01/2018,0,1600 block of N Emporia Wichita,37.7118799,-97.3352248,
01/01/2018,0,807 S Clara Ave Deland,29.0148319,-81.3090772,
01/01/2018,0,3100 block of Pestalozzi St Saint Louis,38.6032785,-90.2357445,
01/01/2018,1,Nell Lambert Rd Jayess,31.4636496,-90.2298335,
01/01/2018,0,5862 MO 43 South West City,36.6124899,-94.5968387,
01/01/2018,2,600 block of S Hague Ave Columbus,39.9425133,-83.0751702,
01/01/2018,0,105th St and Denker Ave Los Angeles,33.9410923,-118.3165151,
01/01/2018,0,2700 block of Aqualane Dr Colorado Springs,38.7707834,-104.7771555,
01/01/2018,0,Dorchester Rd North Charleston,32.9165775,-80.1136677,
01/01/2018,0,65 Winchester St Hartford,41.7904048,-72.6860189,
01/01/2018,0,6119 White Horse Rd Greenville,34.8531467,-82.4569851,
01/01/2018,1,3900 W Cornelia Ave Chicago,41.9426631,-87.7261195,
01/01/2018,0,50 block of E Green St Hazleton (West Hazleton),40.9592981,-75.9942084,
01/01/2018,1,5501 Granville Ave Flint,43.0635658,-83.7148999,
01/01/2018,0,31st St Columbus,-20.1261056,57.5340544,
01/01/2018,0,2500 block of W 6th St Lawrence,-20.1261056,57.5340544,
01/01/2018,0,500 block of Arlington Ave Youngstown,41.108574,-80.6590877,
01/01/2018,0,700 block of Walnut St Freeland,-20.1261056,57.5340544,
01/01/2018,0,Llewellyn Pl Pittsburgh,40.4616646,-79.9118279,
01/01/2018,0,Moss Street Lafayette,30.2627218,-92.0097861,
01/01/2018,0,2000 Block of Old Raleigh Rd Clinton,35.0292368,-78.3149826,
01/01/2018,0,Knollwood Dr and Valley Dr Little Rock,-20.1261056,57.5340544,
01/01/2018,0,W 30th St and Moller Rd Indianapolis,39.809646,-86.2580337,
01/01/2018,0,1142 Culebra Road San Antonio,29.4449931,-98.529017,
01/01/2018,0,N 3rd St Paterson,40.9266648,-74.1765088,
01/01/2018,1,2900 block of Oakland Ave Kansas City,39.1209279,-94.6654953,
01/01/2018,0,2200 block of Jefferson Avenue Newport News,36.9797095,-76.4218233,
01/01/2018,0,Panola Drive Marion,-20.1261056,57.5340544,
02/01/2018,0,5100 block of Germantown Ave Philadelphia,40.0301883,-75.1679904,
02/01/2018,0,N Thomas Ave Mobile (Prichard),30.744629,-88.0938137,
02/01/2018,0,County Road 340 Orrville,32.2647356,-87.2428908,
02/01/2018,0,1800 block of W Norris St Philadelphia,39.9840408,-75.1654795,
02/01/2018,0,400 Grand St Waterbury,41.5557175,-73.0482345,
02/01/2018,0,1800 block of Mulberry St Harrisburg,40.2651303,-76.8643101,
02/01/2018,0,D St Boston,42.3413757,-71.0500254,
02/01/2018,1,1300 block of Coalter St Richmond,37.5456917,-77.4227226,
02/01/2018,1,2100 block of Kecoughtan Rd Hampton,37.0015571,-76.382241,
02/01/2018,0,US 27 and W 12th St Chattanooga,-20.1261056,57.5340544,
02/01/2018,1,Wadley St New Haven,41.3451065,-72.9575456,
02/01/2018,0,15 Smithfield Rd Providence,41.85457,-71.4487946,
02/01/2018,0,1900 block of E Routt Ave Pueblo,38.2344999,-104.6182373,
02/01/2018,0,500 block of E Kagy Blvd Bozeman,45.6574643,-111.0320965,
02/01/2018,1,500 Block of E Exchange St Akron,41.0709254,-81.5079505,
02/01/2018,0,Avenue N and Bedford Ave Brooklyn,40.6166771,-73.951996,
02/01/2018,0,1400 Broadway Ave Mattoon,39.4853176,-88.328587,
02/01/2018,0,10th St and 5th Ave Birmingham,-20.1261056,57.5340544,
02/01/2018,0,45 Ivan Allen Jr Blvd NW Atlanta,33.7648907,-84.3914221,
02/01/2018,0,13300 block of Garden State Dr Newport News,37.1155529,-76.5179753,
02/01/2018,0,Hylton Ave and Greenacre Dr Woodbridge,38.664043,-77.2695907,
02/01/2018,2,1200 block of Covina Ave Medford,42.3422014,-122.8627375,
02/01/2018,1,200 E 4th St Camp Wood,29.6704382,-100.0130413,
02/01/2018,0,1411 Donald Rd Effort,-20.1261056,57.5340544,
02/01/2018,0,State St and Howard Ave Bridgeport,41.1705333,-73.2109541,
02/01/2018,0,1 block of Doublerock St San Francisco,37.7202848,-122.3895785,
02/01/2018,0,8100 block of Robson Detroit,-20.1261056,57.5340544,
02/01/2018,0,4100 block of N 50th St Fort Smith,35.418345,-94.377304,
02/01/2018,0,W 36th St and Walker St Little Rock,34.7205143,-92.3686548,
02/01/2018,0,2800 Wolfe St Little Rock,34.722168,-92.2958769,
02/01/2018,1,1004 W School St Ozark,35.4898827,-93.8375639,
02/01/2018,0,Happy Way Canton,-20.1261056,57.5340544,
02/01/2018,0,200 Block of Linn St Ithaca,42.4451396,-76.4971251,
02/01/2018,0,Snow St Fitchburg,42.584641,-71.7957927,
02/01/2018,0,Spring St and Calhoun St Trenton,40.2248014,-74.7748443,
02/01/2018,1,Crimson Ln and Westwind Pkwy Avondale,33.4916916,-112.2870071,
02/01/2018,0,Conklin Ave and Alfred St Binghamton,42.0943261,-75.8999337,
02/01/2018,0,2300 block of 15th St NE Washington,38.9208661,-76.9846549,
02/01/2018,0,Rosa Parks Blvd and 12th St Paterson,-20.1261056,57.5340544,
02/01/2018,1,1300 block of Gulf Field Dr W Mobile,30.6473541,-88.0837344,
02/01/2018,0,5100 36th St Lubbock,33.5614832,-101.9224683,
02/01/2018,0,2900 block of Gay St Fort Wayne,41.0590535,-85.1264057,
02/01/2018,0,4300 block of Green Ave Madison,40.7524223,-74.4258673,
02/01/2018,0,100 block of 1st St Englewood,-20.1261056,57.5340544,
02/01/2018,0,1645 S Poinciana Blvd Kissimmee,28.2571228,-81.4873675,
02/01/2018,0,Quail Hollow Rd Memphis,35.1030066,-89.8395109,
02/01/2018,0,500 block of 53rd Avenue Meridian,32.3599171,-88.7338579,
02/01/2018,0, Cottage Grove,-20.1261056,57.5340544,
02/01/2018,0,2600 Block of Arpana Ct Orlando,28.4810489,-81.4150411,
02/01/2018,0,5300 W 5400 S Salt Lake City (Kearns),40.6538017,-111.9124564,
02/01/2018,0,New York Ave and Sewell Ave Atlantic City,39.369015,-74.4364902,
02/01/2018,0,Reece Harmon Ridge Rd Rock,-20.1261056,57.5340544,
02/01/2018,0,465 Grand St Jersey City,40.7170244,-74.0575601,
02/01/2018,0,NY 22 Hillsdale,42.1838373,-73.5204832,
02/01/2018,0,Clark Ave and S 18th St Saint Louis,38.6269863,-90.2091824,
02/01/2018,0,2800 Block of Clear Lake Pl Gulf Breeze,30.3881835,-87.1091002,
02/01/2018,1,18801 E 39th St Independence,39.0454419,-94.360082,
02/01/2018,0,6400 S Calumet Ave Chicago,41.777268,-87.6194147,
02/01/2018,1,1040 Dancing Fern Rd Whitwell,35.1398175,-85.5948557,
02/01/2018,0,W Stewart St Dayton,39.7416897,-84.2097942,
02/01/2018,1,28th Ave and Sierra del Sol Thousand Palms,-20.1261056,57.5340544,
02/01/2018,0,214 E Market St Orwigsburg,40.6543015,-76.1015533,
02/01/2018,0,Graham Ln Hilton Head Island,32.2034433,-80.7644493,
02/01/2018,0,Cherry St Pendleton,-20.1261056,57.5340544,
02/01/2018,1,E Verna St Gonzales,30.215018,-90.9175422,
02/01/2018,0,72 Lincoln Ave Saint Albans,38.3813249,-81.8131156,
02/01/2018,0,300 block of Fitch St Syracuse,43.0379715,-76.1753975,
02/01/2018,1,West Newtown St Bay Saint Louis,-20.1261056,57.5340544,
02/01/2018,0,600 Block of Old Fayetteville St Durham,35.9866619,-78.8994033,
02/01/2018,1,200 block of W Longview St Corpus Christi,27.7888461,-97.4322718,
02/01/2018,0,1005 N Marine Blvd Jacksonville,34.7643421,-77.4134611,
02/01/2018,0,800 S 6th St Monmouth,-20.1261056,57.5340544,
02/01/2018,1,184 Greene Settlement Rd Gray,-20.1261056,57.5340544,
02/01/2018,0,7th St and Martha Ave Keyes,-20.1261056,57.5340544,
02/01/2018,0,4200 block of Sheldon Ave Baltimore,39.3287211,-76.5666791,
02/01/2018,0,Airport Rd Angelina (county),-20.1261056,57.5340544,
02/01/2018,1,4700 Commonwealth Ave Western Springs,41.8037926,-87.9102696,
02/01/2018,1,22950 US 19 N Clearwater,27.9811897,-82.7326415,
02/01/2018,0,4400 block of Gault Pl NE Washington,38.8992664,-76.9411318,
02/01/2018,1,500 block of Richwood Ave Baltimore,39.3470237,-76.6113302,
02/01/2018,0,8010 Madison Ave Indianapolis,39.6498725,-86.1244732,
02/01/2018,0,1100 N Dearborn St Chicago,41.9020552,-87.6323902,
02/01/2018,0,3600 block of Lucille Ave Baltimore,39.342478,-76.6767235,
02/01/2018,0,2700 block of W 5th St Wilmington,39.7529278,-75.5823319,
02/01/2018,0,6458 US 129 Live Oak,30.2756247,-82.9896604,
02/01/2018,0,904 3rd St Birmingham,-20.1261056,57.5340544,
02/01/2018,0,1870 Redwood Hwy Corte Madera,37.9308917,-122.5166558,
02/01/2018,0,Calistoga Rd Santa Rosa,38.4843494,-122.6615301,
02/01/2018,0,Lincoln Ave and Rose Ave Rockford,-20.1261056,57.5340544,
02/01/2018,0,1200 block of Druid Hill Ave Baltimore,39.3011541,-76.6299958,
02/01/2018,1,3428 S Memorial Dr Greenville,35.5695511,-77.4058115,
02/01/2018,0,500 block of Green St Lancaster,40.0320786,-76.3028781,
02/01/2018,0,5600 block of Reisterstown Rd Baltimore,39.3487262,-76.6946931,
02/01/2018,0,2500 W Touhy Ave Chicago,42.0124643,-87.6951172,
02/01/2018,0,Washington Ave Kingston,41.9325827,-74.025912,
02/01/2018,2,300 block of W 27th St Northampton,-20.1261056,57.5340544,
02/01/2018,0,3800 block of School Rd Madison,43.1345732,-89.3853479,
02/01/2018,0,9200 S Blackstone Ave Chicago,41.7276537,-87.5903761,
02/01/2018,0,2700 block of N 52nd St Milwaukee,43.0680035,-87.9808298,
02/01/2018,0,2600 block of Tyrell Dr Saint Louis (Jennings),-20.1261056,57.5340544,
02/01/2018,1,901 Landreth Ave Joplin,37.0991671,-94.5103172,
02/01/2018,0,1101 N Bay St Eustis,28.86413,-81.6883401,
02/01/2018,0,19700 block of Country Club Dr Harper Woods,42.4430741,-82.9319872,
02/01/2018,0,Morse St and East Ave Akron,41.0585832,-81.5613235,
02/01/2018,0,4264 Summer Ave Memphis,35.1503982,-89.9203576,
03/01/2018,0,165 S French Broad Ave Asheville,35.5883949,-82.5618138,
03/01/2018,1,S Sheridan Ave and S 96th St Tacoma,47.1702002,-122.4558252,
03/01/2018,0,300 block of Hunter St Suffolk,36.7150493,-76.5848287,
03/01/2018,0,5900 block of Brann St Oakland,37.7744782,-122.188627,
03/01/2018,0,200 E Fox St South Bend,41.6516174,-86.2500257,
03/01/2018,0,1200 block of FM 1028 Lufkin,-20.1261056,57.5340544,
03/01/2018,0,4200 block of Cardwell Ave Baltimore,39.3660667,-76.5201626,
03/01/2018,0,6100 block of Singing Hills Ln Dallas,32.6728622,-96.8050641,
03/01/2018,0,Gladiolus Dr and Edisto Way Fort Myers,26.5182243,-81.9360936,
03/01/2018,0,1200 block of Grove St. Chattanooga,35.0449424,-85.3196668,
03/01/2018,0,Port Malabar Blvd Malabar,28.0189821,-80.6069775,
03/01/2018,0,455 Amherst St Amherst,-20.1261056,57.5340544,
03/01/2018,2,6500 block of Glenmoor Dr Garland,32.8355884,-96.5949123,
03/01/2018,1,Annadale Dr Memphis,35.0002537,-89.8176668,
03/01/2018,0,7640 Milton-Potsdam Rd West Milton,39.9629649,-84.3469985,
03/01/2018,0,2630 Croft Rd Springfield,39.9568666,-83.7496047,
03/01/2018,0,Boozer Ln and CA-96 Hoopa,41.0306968,-123.6657046,
03/01/2018,0,5300 Riverside Dr Cleveland,41.4106123,-81.8408477,
03/01/2018,1,4831 SE Powell Blvd Portland,45.4977393,-122.6151687,
03/01/2018,0,Mandeville Street and North Miro Street New Orleans,29.979841,-90.0574687,
03/01/2018,0,826 4th St Eureka,-20.1261056,57.5340544,
03/01/2018,0,NW 17th St and NW 34th Ave Miami,25.7902661,-80.2536844,
03/01/2018,1,E 26th Ave and N Himalaya Rd Aurora,-20.1261056,57.5340544,
03/01/2018,1,800 block of N Gay St Auburn,32.6207148,-85.4815644,
03/01/2018,1,Carolina Ave and Elm St Bluefield,-20.1261056,57.5340544,
03/01/2018,0,600 block of Kentucky St Bakersfield,35.379418,-118.9955764,
03/01/2018,0,Indiana Ave Lorain,41.4726642,-82.1633024,
03/01/2018,0,7700 block of Lacombe St New Orleans,30.0480552,-89.9804965,
03/01/2018,1,7th St and Chester St Oakland,-20.1261056,57.5340544,
03/01/2018,0,700 block of Eager St Baltimore,39.3013588,-76.6094548,
03/01/2018,1,1535 Warrior Rd Birmingham,33.4929664,-86.8923655,
03/01/2018,1,1800 block of Elysian Fields Ave New Orleans,29.9756425,-90.0597143,
03/01/2018,1,5000 block of East Outer Drive Detroit,42.4394614,-83.0193805,
03/01/2018,0,3165 S 8100 S Magna,-20.1261056,57.5340544,
03/01/2018,1,423 E Little Creek Rd Norfolk,36.9173643,-76.2614492,
03/01/2018,0,3910 KY Route 40 E Meally,37.7955548,-82.7513257,
03/01/2018,0,1300 block of Fox Creek Dr Killeen,31.0968146,-97.7045846,
03/01/2018,0,Sutter St and Larkin St San Francisco,37.7879799,-122.4206869,
03/01/2018,0,Highway 63 Moss Point,30.4307114,-88.5263092,
03/01/2018,0,N 12th St and Grand Ave Fort Smith,35.3864734,-94.4191444,
03/01/2018,0,US 70 Hillsborough,36.0860356,-79.1002351,
03/01/2018,1,10100 block of Avenue E Baton Rouge,30.536279,-91.1963841,
03/01/2018,1,4600 block of Sauk Ave San Diego,32.832317,-117.1949906,
03/01/2018,0,Calamondin Ave and Pine St Cocoa,28.4152345,-80.8288239,
03/01/2018,0,500 block of W Ravenwood Ave Youngstown,41.0644093,-80.673018,
03/01/2018,0,600 block of Maude Ave Baltimore,39.2385348,-76.6031801,
03/01/2018,0,11275 SE 27th Ave Portland (Milwaukie),45.4415799,-122.6377032,
03/01/2018,0,Martin Luther King Dr and Cass St Springfield,-20.1261056,57.5340544,
03/01/2018,0,160 Neptune Blvd Lynn,42.4588739,-70.9610946,
03/01/2018,0,3210 Morgan Ave N Minneapolis,45.0136306,-93.3063712,
03/01/2018,0,5901 S Calle Santa Cruz Tucson,32.1454129,-110.9918355,
03/01/2018,0,3500 S and 4400 W Salt Lake City (West Valley City),40.6966015,-111.9983744,
03/01/2018,2,5400 Block of CR 424 Taylor,30.6090128,-97.307746,
03/01/2018,1,12500 block of Cross Ridge Way Germantown,39.172722,-77.2602017,
03/01/2018,0,Baxter Ave and Broadway Louisville,38.2437711,-85.7292118,
03/01/2018,1,725 E Main St Somerton,32.5962297,-114.7044675,
03/01/2018,0,Myrtle Dr Thomasville,30.8493996,-83.9746822,
03/01/2018,0,7900 Shelbyville Rd Louisville,38.2470462,-85.6121053,
03/01/2018,1,2583 Green Rd Saint Johns,42.9078637,-84.5128306,
03/01/2018,1,386 Stockpen Mountain Rd Narrows,-20.1261056,57.5340544,
03/01/2018,0,Black Bottom Rd Jeremiah,-20.1261056,57.5340544,
03/01/2018,0,E 10th St and Kensington Ave Kansas City,-20.1261056,57.5340544,
03/01/2018,0,4421 Prichard Rd Moses Lake,47.1035698,-119.3437688,
03/01/2018,0,485 Southtowne Dr Belvidere,42.2415408,-88.8486486,
03/01/2018,0,2500 block of Lauretta Ave Baltimore,39.2941688,-76.6586095,
03/01/2018,1,Reynolds St Pearl,32.2817569,-90.1146047,
03/01/2018,0,Fountain Blvd and Jetwing Dr Colorado Springs,38.8087324,-104.7434249,
03/01/2018,0,5500 Block of Haverhill Rd West Palm Beach,26.7591142,-80.1179908,
03/01/2018,0,5100 block of Gertrude Drive Jackson,32.2801388,-90.2714039,
03/01/2018,0,W Florissant Ave and Thrush Ave Saint Louis,38.7008404,-90.24641,
03/01/2018,2,620 N Western Ave Lake Forest,42.2510441,-87.8420646,
03/01/2018,0,2945 Arthur Kill Rd Staten Island,40.5469367,-74.2317224,
03/01/2018,0,109th Ave Corona (Queens),40.7471981,-73.8574312,
03/01/2018,0,E 165th St and Forest Ave Bronx,-20.1261056,57.5340544,
03/01/2018,0,Walton Ave Bronx,40.8383387,-73.9191014,
03/01/2018,0,Westchester Ave and Commonwealth Ave Bronx,40.831368,-73.870344,
03/01/2018,1,1741 University Dr E Oxford,-20.1261056,57.5340544,
03/01/2018,0,I-385 and Hwy 417 Simpsonville,34.6527863,-82.1622658,
03/01/2018,0,900 block of Washington Ave Huntington,38.4153472,-82.4740164,
03/01/2018,1,539 E 78th St New York (Manhattan),40.769944,-73.9509684,
03/01/2018,0,Backwoods Dr Florence,34.2085566,-79.6253028,
03/01/2018,1,1401 NW 103rd St Miami,25.8690923,-80.2249812,
03/01/2018,0,4895 Ashley Phosphate Rd North Charleston,32.9184098,-80.1032992,
03/01/2018,1,604 W Yosemite Ave Merced,37.3318509,-120.4808344,
03/01/2018,0,1810 S Ocean Blvd Myrtle Beach,33.671107,-78.9068114,
03/01/2018,0,3625 S Decatur Blvd Las Vegas,36.1240754,-115.2108477,
03/01/2018,1,200 Shaker Mill Bend Rd Bowling Green,36.9676502,-86.3928724,
03/01/2018,0,2nd Ave Scottsbluff,41.872549,-103.6622387,
03/01/2018,0,8400 block of 167th Ave NE Redmond,47.6780554,-122.1198218,
03/01/2018,1,Chico Rd and Texas St NE Albuquerque,35.0763975,-106.5580898,
03/01/2018,0,2111 Thompson Rd Richmond,29.5652833,-95.7617615,
03/01/2018,0,9600 Old 6 Mile Ln Louisville (Jeffersontown),38.2008648,-85.583176,
03/01/2018,0,S Owasso Pl and E 63rd St Tulsa,36.0723491,-95.9790052,
03/01/2018,2,Ramona Expy and Warren Rd San Jacinto,33.763827,-117.0368795,
03/01/2018,0,7400 block of S Vincennes Chicago,41.7596527,-87.6329224,
03/01/2018,0,100 block of W Bridge St Morrisville,40.2072185,-74.7799453,
03/01/2018,0,498 Highgate Buffalo,42.9483394,-78.8114057,
03/01/2018,2,7462 Berkley Rd Polk City,28.1762667,-81.8287023,
03/01/2018,0,7200 block of Lyrewood Ln Oklahoma City,35.5452113,-97.632717,
03/01/2018,0,100 E 130th St Chicago,41.6591175,-87.6199092,
03/01/2018,0,10161 NW 26th Ave Miami,25.8673799,-80.2434034,
03/01/2018,1,24000 block of Del Amo Rd Ramona,33.0115542,-116.8123135,
03/01/2018,0,52nd St and Chicago Ave Sioux Falls,-20.1261056,57.5340544,
03/01/2018,0,Tower Blvd and Falbo Ave Lorain,41.436972,-82.1766512,
03/01/2018,0,10400 block of SE 10th St Vancouver,45.6144122,-122.5677878,
03/01/2018,0,1000 block of Summitview Ave Yakima,46.5998487,-120.5258042,
03/01/2018,0,1400 block of Greensboro Columbia,-20.1261056,57.5340544,
03/01/2018,1,100 block of Southfield Rd Shreveport,32.4570634,-93.7104923,
03/01/2018,0,5000 block of Moravia Rd Baltimore,39.325148,-76.552344,
03/01/2018,0,4400 block of Asbury Ave Baltimore,39.328861,-76.5651767,
03/01/2018,0,8500 block of 115th Ave NE Lake Stevens,48.0732592,-122.0783469,
03/01/2018,0,1600 block of Pennsylvania Ave Baltimore,39.302969,-76.6363931,
03/01/2018,0,600 block of Glenolden St Baltimore,39.2949234,-76.6645876,
03/01/2018,0,3101 NE 15th St Gainesville,29.6820189,-82.3073756,
03/01/2018,1,6329 S 212th St Kent,47.4070167,-122.259072,
03/01/2018,1,2000 block of Linden Ave Baltimore,39.3107571,-76.6352019,
03/01/2018,0,1533 Cleveland Ave SW Canton,40.7824674,-81.3870796,
03/01/2018,1,Rion Ln and Clinton Springs Ln Cincinnati,-20.1261056,57.5340544,
03/01/2018,0,200 E 58th St Chicago,41.7893163,-87.6227217,
03/01/2018,1,7761 Murcott Cir Orlando,28.5395936,-81.4907343,
03/01/2018,0,S Broad St Trenton,40.206697,-74.7514857,
03/01/2018,0,Cook St and Belmont Ave Haledon,-20.1261056,57.5340544,
03/01/2018,0,300 Indiana Ave Washington,38.8941731,-77.0187372,
03/01/2018,0,200 block of Richcreek Road Columbia,34.0460716,-81.0584423,
03/01/2018,0,47000 block of Co Rd 687 Hartford,42.2476272,-86.169655,
03/01/2018,0,1900 Block of N Seacrest Blvd Boynton Beach,26.5468362,-80.0693232,
03/01/2018,0,1000 High St Mosinee,-20.1261056,57.5340544,
03/01/2018,0,400 Block of Broward Ave Greenacres,26.6264488,-80.1257134,
03/01/2018,2,4316 Curry Ford Rd Orlando,28.5240668,-81.3335996,
03/01/2018,0,4200 block of N Teutonia Ave Milwaukee,43.0928969,-87.9427166,
04/01/2018,0,Bender Rd and Taylor St North Ridgeville,-20.1261056,57.5340544,
04/01/2018,0,Ashland St Jacksonville,30.2895904,-81.6444927,
04/01/2018,0,2715 Whites Creek Pike Nashville,36.2194125,-86.8028411,
04/01/2018,1,Jolson Ave Memphis,35.0823617,-89.9758236,
04/01/2018,0,1619 Salt Springs Rd Youngstown,41.1197422,-80.6956248,
04/01/2018,0,St Charles Pkwy and Gateview Pl Waldorf,38.6116855,-76.8870977,
04/01/2018,1,615 W 6th St Brinkley,34.9037044,-91.2030201,
04/01/2018,0,500 block of Avenue G Redondo Beach,33.8183532,-118.3826689,
04/01/2018,0,FM 2244 and Capital of Texas Hwy Austin,-20.1261056,57.5340544,
04/01/2018,0,Colfax Ave and Sherman St Denver,39.7401126,-104.9870541,
04/01/2018,0,800 block of Bunche Dr Raleigh,35.7522444,-78.6256659,
04/01/2018,1,500 W Lake St Maywood,41.8895472,-87.8417357,
04/01/2018,0,2601 15th St S Fargo,46.8406058,-96.8060267,
04/01/2018,1,7400 block of Muirfield Way Sacramento,38.4902519,-121.4863746,
04/01/2018,0,1200 Block of Ave A Marrero,29.890369,-90.0947722,
04/01/2018,0,500 block of Middle St North Little Rock,34.7571354,-92.2146103,
04/01/2018,0,Literary Rd and W 7th St Cleveland,41.4825218,-81.6874028,
04/01/2018,0,285 Muldoon Rd Anchorage,61.2210086,-149.7347431,
04/01/2018,0,90 Fallbrook St Carbondale,41.5803554,-75.5098635,
04/01/2018,1,800 S Lake St Gary,41.596383,-87.2690047,
04/01/2018,0,11000 block of Regency Dr Eagle River,61.3251519,-149.5783417,
04/01/2018,0,Stafford Station Dr and High Country Trail Fort Worth (Saginaw),32.88028,-97.3530363,
04/01/2018,1,10th St and Ivandale St Kansas City,-20.1261056,57.5340544,
04/01/2018,0,4000 Block of Water St Columbia,34.0370176,-81.0274805,
04/01/2018,0,Good Neighbor Rd Franklin,35.9117018,-86.8946275,
04/01/2018,0,Jewell Ave Louisville,38.2677543,-85.8161137,
04/01/2018,0,Alice Ct New Orleans,29.9614475,-90.0220074,
04/01/2018,0,1808 Parkade Blvd Columbia,38.971835,-92.3454436,
04/01/2018,0,Great Mills Rd Lexington Park,38.2560489,-76.4788994,
04/01/2018,0,701 9th St W Bradenton,27.4931979,-82.5729781,
04/01/2018,1,2700 block of Fort Wayne St Oroville,39.4958192,-121.5448311,
04/01/2018,0,10915 Bethel Rd Olive Branch,34.8920629,-89.8052346,
04/01/2018,1,27th St and Fairview Ave Boise,-20.1261056,57.5340544,
04/01/2018,0,9529 E 51st St Tulsa,36.0903737,-95.8713308,
04/01/2018,0,28th St Boulder,40.0300878,-105.260686,
04/01/2018,0,3500 block of SE 7th St Topeka,39.042559,-95.6248219,
04/01/2018,1,64 Bushnell St Hartford,41.7406781,-72.6812218,
04/01/2018,0,1400 block of N Delaware Place Tulsa,36.1747445,-95.9508979,
04/01/2018,0,4800 block of Crestmore Riverside (Jurupa Valley),33.9820713,-117.4139354,
04/01/2018,0,1740 E Oglethorpe Hwy Hinesville,31.8589191,-81.5693294,
04/01/2018,1,Murray St Rochester,43.1646301,-77.6443585,
04/01/2018,1,3111 W College St Grand Island,40.940179,-98.3794361,
04/01/2018,1,1200 block of Oak Ave Greenfield,36.3175753,-121.2530441,
04/01/2018,0,2000 Chapel Hill Rd Durham,35.9900967,-78.930148,
04/01/2018,1,W 92nd Ave and Federal Blvd Westminster,39.8636575,-105.0576216,
04/01/2018,2,2850 Adrian Street San Diego,32.7514086,-117.2285621,
04/01/2018,0,1100 block of 8th St Oakland,37.8046531,-122.2891454,
04/01/2018,0,1300 Avenida de Mesilla Las Cruces,32.287255,-106.7952771,
04/01/2018,1,Hoke St and Litchfield Ave Gadsden,34.002672,-85.9783528,
04/01/2018,0,S 1st St and W G St Lincoln,-20.1261056,57.5340544,
04/01/2018,0,614 SW 120th St Seattle (Burien),47.4966311,-122.3445989,
04/01/2018,0,1600 block of Pelham Rd S Jacksonville,33.8000864,-85.7629155,
04/01/2018,0,Anderson Ave and S Elmwood Ave Kansas City,-20.1261056,57.5340544,
04/01/2018,0,300 block of E 6th Terrace Kansas City,39.106204,-94.5816062,
04/01/2018,0,E Winneshiek St and S Adams Ave Freeport,42.2951396,-89.616348,
04/01/2018,0,3589 Church Hill Rd Eggleston,-20.1261056,57.5340544,
04/01/2018,1,1901 NW 24th Ave Miami,25.7924805,-80.237043,
04/01/2018,0,1404 Reid Ave Lorain,41.4576809,-82.1730208,
04/01/2018,0,Patton Dr North Ridgeville,41.384004,-81.9953437,
04/01/2018,0,700 block of N Rose St Baltimore,39.2991899,-76.5839724,
04/01/2018,1,8th Ave Greeley,40.4095683,-104.6931655,
04/01/2018,0,8300 block of Sagewood Ln Hazelwood,38.7653471,-90.3278895,
04/01/2018,0,I-435 and NE 48th St Kansas City,-20.1261056,57.5340544,
04/01/2018,0,4703 Miller Ave Fort Worth,32.6932679,-97.2647983,
04/01/2018,0,18005 Eastex Freeway Service Rd Humble,29.9803907,-95.2815317,
04/01/2018,0,Whisperwood Street Albany,31.590115,-84.2327137,
04/01/2018,0,2607 Dallas Ave. High Point,35.9819214,-79.9819762,
04/01/2018,0,N State St and New Jersey Ave Clairton,-20.1261056,57.5340544,
04/01/2018,0,W Main St and Minnie St Gloster,-20.1261056,57.5340544,
04/01/2018,0,7200 S St Lawrence Ave Chicago,41.7638593,-87.6128391,
04/01/2018,0,SE 145th St Summerfield,29.0112719,-82.0270756,
04/01/2018,0,2000 block of Pope Rd Winston Salem (Winston-salem),36.0394636,-80.2883048,
04/01/2018,0,E 75th St and Troost Ave Kansas City,38.9915516,-94.5778493,
04/01/2018,0,3500 W 23rd St Chicago,41.8498621,-87.7146717,
04/01/2018,0,I-40 Hinton,35.5291117,-98.3679355,
04/01/2018,0,Dorrell Ln and Shaumber Rd Las Vegas,36.2882707,-115.3311355,
04/01/2018,1,Hwy 40 and Manchester Ave Kansas City,-20.1261056,57.5340544,
04/01/2018,0,3109 Terry Rd Jackson,32.2597674,-90.2237421,
04/01/2018,0,9300 block of S Baltimore Ave Chicago,41.7264394,-87.5505881,
04/01/2018,0,300 block of Hill Rd Hyattsville,38.8933667,-76.8806247,
04/01/2018,1,7500 block of Monterrey Dr Fort Worth,32.7504177,-97.1971695,
04/01/2018,0,2401 W Waco Dr Waco,31.543948,-97.1549542,
04/01/2018,1,Campo Road and Bonita Street Spring Valley,32.7426717,-116.9861725,
04/01/2018,0,2500 block of Cross Timbers College Station,30.612819,-96.3048817,
04/01/2018,0,1100 NE Independence Ave Lees Summit,38.9326274,-94.3680097,
04/01/2018,0,47400 block of Sandia Creek Dr Temecula,33.4634983,-117.240023,
04/01/2018,0,SW Wolf St Lawton,34.589093,-98.4343917,
04/01/2018,0,Gay Dr Beaufort (Ladys Island),-20.1261056,57.5340544,
04/01/2018,0,10000 block of Dneiper Ln Stockton,-20.1261056,57.5340544,
04/01/2018,0,1404 Aberdeen Rd Columbus,-20.1261056,57.5340544,
04/01/2018,0,Fountain Pointe Ln Myrtle Beach,33.7187341,-78.9468336,
04/01/2018,0,1500 block of W Groeling Ave Milwaukee,43.072043,-87.932845,
04/01/2018,1,6200 block of Ilanos Ln Las Vegas,36.1946093,-115.2294358,
04/01/2018,1,Hill Rd and Willow Hill Dr Hyattsville,38.8946721,-76.881036,
04/01/2018,0,500 Van Buren Saint Paul,44.9617786,-93.1237632,
04/01/2018,0,900 Block of N 31st St Baton Rouge,30.4568455,-91.1595167,
04/01/2018,0,Westgrove Rd Hudson,44.9212008,-92.7376409,
04/01/2018,0,1000 block of Chestnut St Lebanon,-20.1261056,57.5340544,
04/01/2018,0,Mohawk St and Waneta Ave Middletown,39.4786705,-84.39712,
04/01/2018,0,John Glenn Cir and Warwick St Daly City,37.6531206,-122.4655325,
04/01/2018,1,I Street NE Auburn,47.328399,-122.2216457,
04/01/2018,0,3500 block of S Warren Ave Butte,45.9739474,-112.5202091,
04/01/2018,0,14000 block of Twig Rd Silver Spring,-20.1261056,57.5340544,
04/01/2018,0,Chardonay St Athens,33.9924967,-83.3605859,
04/01/2018,0,E North Ave and Rose St Baltimore,39.3126905,-76.584521,
04/01/2018,0,Bear River Dr Loleta,40.6301646,-124.2048547,
04/01/2018,0,Black Creek Road Florence,-20.1261056,57.5340544,
04/01/2018,1,First St and Quail St Albany,-20.1261056,57.5340544,
04/01/2018,0,1300 E New York St Aurora,41.7557797,-88.2861472,
04/01/2018,0,Franklin St Troy,-20.1261056,57.5340544,
04/01/2018,1,Timber Ln and Valican Shores Ln Crandon,-20.1261056,57.5340544,
04/01/2018,0,150 Town Centre Dr Johnstown,40.2764675,-78.847885,
04/01/2018,0,3100 block of Peck St Muskegon (Muskegon Heights),43.1964807,-86.2469936,
04/01/2018,0,Mill St Tallahassee,30.4224116,-84.3018857,
04/01/2018,0,Benning Rd and E Capitol St NE Washington,38.8899003,-76.9397865,
04/01/2018,0,5200 block of 18th Ave SW Seattle,47.5557359,-122.3592411,
04/01/2018,0,1901 E 29th St Muncie,40.1598755,-85.3668188,
04/01/2018,1,100 Block of Todd Dr NE Concord,35.425901,-80.5924429,
04/01/2018,0,Orchard Ave and Normandy Dr Grand Junction,39.0846869,-108.5247835,
04/01/2018,1,100 block of Chadwick Ave Newark,40.7230302,-74.2023742,
04/01/2018,0,18244 W 7 Mile Rd Detroit,42.4301485,-83.223652,
04/01/2018,0,13500 block of Cridercrest Pl Woodbridge,38.6530194,-77.2705287,
05/01/2018,1,15000 block of Coram St Detroit,42.4379688,-82.9687896,
05/01/2018,0,8247 Pacific Ave Tacoma,47.1813286,-122.4359302,
05/01/2018,0,100 Block of W 10th St Stockton,-20.1261056,57.5340544,
05/01/2018,0,2000 block of Linden Ave Baltimore,39.3107571,-76.6352019,
05/01/2018,0,2400 Block of E Lafayette Ave Baltimore,39.3112388,-76.5865116,
05/01/2018,0,2100 Block of Orleans St Baltimore,39.2955816,-76.5896378,
05/01/2018,0,3400 8th Ave Columbus,32.4633154,-84.9434036,
05/01/2018,0,100 block of E County Rd C Saint Paul (Little Canada),45.022845,-93.0985707,
05/01/2018,0,300 Block of 34th Pl NE Washington,38.8937733,-76.9590095,
05/01/2018,0,I-35E and Hwy 13 Saint Paul (Mendota Heights),44.9381071,-93.1227392,
05/01/2018,0,600 Clifford St Saint Paul,44.9586634,-93.2058391,
05/01/2018,0,5th St and Hennepin Ave S Minneapolis,-20.1261056,57.5340544,
05/01/2018,0,2183 18 1/2 Ave Rice Lake,-20.1261056,57.5340544,
05/01/2018,0,I-96 Detroit,42.3795371,-83.1944458,
05/01/2018,0,1 Cowlitz Way Ridgefield,45.8537671,-122.7089026,
05/01/2018,0,Corey Dr Denver,-20.1261056,57.5340544,
05/01/2018,0,2700 block of King St Colorado Springs,38.85547,-104.861716,
05/01/2018,2,3759 Chestnut Place Denver,39.7742626,-104.9797961,
05/01/2018,0,8th St West Palm Beach,26.720851,-80.0640087,
05/01/2018,0,3800 block of Half Turn Rd Colorado Springs,38.8861726,-104.7587761,
05/01/2018,0,1301 Union St Lafayette,40.4245131,-86.8851775,
05/01/2018,0,2647 N 51st St Milwaukee,43.0672346,-87.9800534,
05/01/2018,1,Coldwater St Tunica,34.7019011,-90.3803621,
05/01/2018,0,S Taft Ave and IA 122 Mason City,43.1484066,-93.2427755,
05/01/2018,0,521 Blaine Ave Canonsburg,40.2664467,-80.1757382,
05/01/2018,0,W Mill Rd and Teutonia Ave Milwaukee,43.1341323,-87.9993,
05/01/2018,0,115 Walnut St Steele,-20.1261056,57.5340544,
05/01/2018,0,3716 Hawthorne Woods Cir Manhattan,39.217333,-96.6270478,
05/01/2018,1,200 block of W Matthews St Roswell,-20.1261056,57.5340544,
05/01/2018,0,720 Quarry St Raleigh,35.7695299,-78.6257893,
05/01/2018,1,1736 N Somerset Ave Indianapolis,39.7906556,-86.2248076,
05/01/2018,1,3700 block of Cardinal Dr Pocatello,42.8989623,-112.474866,
05/01/2018,0,Timberlinks Dr Signal Mountain,35.1405721,-85.3518912,
05/01/2018,1,2100 Harrison St Gary,41.578617,-87.3474737,
05/01/2018,0,350 Trolley Line Blvd Mashantucket,41.4733358,-71.9621921,
05/01/2018,1,6700 block of New Jersey Ave Hammond,41.5917335,-87.4407618,
05/01/2018,0,600 block of 24 Rd Grand Junction,39.092168,-108.6106122,
05/01/2018,0,South Cities Service Highway Sulphur,30.2185854,-93.3277156,
05/01/2018,1,SR 89A Sedona,34.8629938,-111.8056779,
05/01/2018,0,8125 Mills Rd Houston,29.9493837,-95.54058,
05/01/2018,1,4401 Montgomery Blvd NE Albuquerque,35.1327879,-106.5954646,
05/01/2018,0,Pint Cir Longs,33.860013,-78.772716,
05/01/2018,1,Ford Ave Jackson,32.3329535,-90.2365403,
05/01/2018,1,43rd Ave and Orangewood Ave Glendale,33.5457152,-112.1579522,
05/01/2018,1,2000 block of N National Springfield,37.2334698,-93.276957,
05/01/2018,0,Bigelow St North Brookfield,42.2707133,-72.0990944,
05/01/2018,0,1905 Piedmont Rd NE Atlanta,33.8097174,-84.3677095,
05/01/2018,0,700 S Capitol Dr Boise,43.6077228,-116.2011155,
05/01/2018,1,1900 block of Little St La Marque,29.3589651,-94.9738087,
05/01/2018,1,6500 block of Purdy Ave Bell Gardens,33.973769,-118.1629057,
05/01/2018,0,600 block of SW 23rd St Oklahoma City,35.441314,-97.5261092,
05/01/2018,0,600 block of N Silk St Allentown,40.6102761,-75.4792369,
05/01/2018,0,Richmond Terr Staten Island,40.6400671,-74.1326648,
05/01/2018,0,2500 E 77th St Chicago,41.7554012,-87.5660782,
05/01/2018,0,19601 Hill Valley Rd Three Springs,-20.1261056,57.5340544,
05/01/2018,1,1155 Milton St Titusville,28.5629005,-80.8176264,
05/01/2018,0,Lanier Ave Jackson,32.3193003,-90.2049491,
05/01/2018,0,US 2 Culbertson,48.1488548,-104.5160806,
05/01/2018,0,3025 S Adams St Tallahassee,30.4039812,-84.28436,
05/01/2018,1,Fish Rd Wilder,-20.1261056,57.5340544,
05/01/2018,0,700 S Pulaski Rd Chicago,41.8724081,-87.727814,
05/01/2018,1,100 block of Chisholm St Apopka,28.6596459,-81.5156684,
05/01/2018,0,1419 S Hamilton Rd Columbus,39.9457724,-82.8805095,
05/01/2018,0,Lincoln Ave Labelle,26.7522567,-81.4318025,
05/01/2018,1,East Broad Street and Sugar Hill Road Texarkana,33.488688,-94.0018376,
05/01/2018,0,3900 W 26th St Chicago,41.84453,-87.7245167,
05/01/2018,0,4100 W Armitage Ave Chicago,41.9173766,-87.7313507,
05/01/2018,1,1500 E 62nd St Chicago,41.782958,-87.5914939,
05/01/2018,1,3700 block of S Compton Ave Saint Louis,38.589334,-90.2401683,
05/01/2018,0,7075 Cross Country Rd North Charleston,32.9058762,-80.0778566,
05/01/2018,0,Midwood Ave and Hughes Dr Toledo,41.675381,-83.59898,
05/01/2018,0,1200 block of W Cambria St Philadelphia,39.9965391,-75.1523297,
05/01/2018,0,53 Bellevue Ave Haverhill,42.7761941,-71.0934327,
05/01/2018,0,300 block of Newburgh Ave Buffalo,42.922728,-78.8105908,
05/01/2018,0,4900 block of Carver Ct Louisville,38.1797836,-85.6684787,
05/01/2018,1,3600 Mitthoeffer Rd Indianapolis,39.8225481,-85.9933772,
05/01/2018,0,6168 US 49 Hattiesburg,31.3268935,-89.3306965,
05/01/2018,0,3700 W Montrose Ave Chicago,41.9613087,-87.7229329,
05/01/2018,0,11259 E Via Linda Scottsdale,33.5864954,-111.8404393,
05/01/2018,1,1300 block of Burks Street SW Roanoke,37.2681648,-79.9940634,
05/01/2018,0,Porter Rd Burns,-20.1261056,57.5340544,
05/01/2018,0,9700 block of Sunny Dr NE Moses Lake,47.1472046,-119.2857403,
05/01/2018,1,105 Sandy Dr N Keizer,45.000155,-123.0291947,
05/01/2018,0,Ozark Dr Bryant,34.6234219,-92.5121688,
05/01/2018,0,2nd St and Walnut Ave Joplin,-20.1261056,57.5340544,
05/01/2018,0,700 N Homan Ave Chicago,41.8938094,-87.7138802,
05/01/2018,0,7910 Reichs Ford Rd Frederick,39.3984824,-77.3918247,
05/01/2018,0,500 block of N Main St Jonesboro,35.8491392,-90.7066657,
05/01/2018,0,1200 block of Speaker Rd Wolf Creek,42.716025,-123.3456117,
05/01/2018,0,4800 Crestmore Rd Riverside,33.9820713,-117.4139354,
05/01/2018,0,Spruce and Millbrook Fresno,36.8402359,-119.7676427,
05/01/2018,1,7201 Vine St Cincinnati,39.1956155,-84.481299,
05/01/2018,0,3100 block of River Rd Cincinnati,39.0877304,-84.5733055,
05/01/2018,1,Medgar Evers Blvd Jackson,32.3616422,-90.2402068,
05/01/2018,2,700 W Rice St Sioux Falls,43.562353,-96.7383538,
05/01/2018,0,1200 block of St. Charles Street Thibodaux,29.7877429,-90.8200626,
05/01/2018,1,Chestnut St and Rancho Dr San Bernardino,34.0932538,-117.3357593,
05/01/2018,1,20420 Park Rd 22 Corpus Christi,27.4158906,-97.3040629,
05/01/2018,0,1800 NE 7th St Grants Pass,42.4589435,-123.3238687,
05/01/2018,0,16th and Prospect Lincoln,40.795232,-96.7005727,
05/01/2018,0,6000 block of Powers Ferry Rd Atlanta,33.8788389,-84.3994168,
05/01/2018,0,1464 29th Ave Columbus,41.4310309,-97.3656403,
05/01/2018,0,3600 W Lexington St Chicago,41.8718691,-87.7180016,
05/01/2018,0,Stanislaus St and Dr MLK Jr Blvd Stockton,37.9403226,-121.2804456,
05/01/2018,0,TX 130 and Kelly Ln Pflugerville,-20.1261056,57.5340544,
05/01/2018,0,14400 LA 101 Lacassine,30.2418648,-92.9310405,
05/01/2018,0,500 N Judge Ely Blvd Abilene,32.451649,-99.7089268,
05/01/2018,0,Olivant St and Bower St Pittsburgh,40.4668054,-79.9017765,
05/01/2018,1,1713 Alexsandria Rd Greensboro,36.138743,-79.7593717,
05/01/2018,0,2200 block of N Reynolds Toledo,41.6620241,-83.669894,
05/01/2018,0,I-70 and Salisbury St Saint Louis,-20.1261056,57.5340544,
05/01/2018,0,1700 block of Ackley St Westland,42.296932,-83.3816076,
05/01/2018,1,30 block of Starlite Ln Pontiac,42.6694745,-83.3217111,
05/01/2018,0,W 45th St and Wichita Ave Cleveland,41.432979,-81.7184855,
05/01/2018,0,120 21st Ave N Nashville,36.1514044,-86.8038516,
05/01/2018,1,5300 block of Great Oak Way Columbus (Whitehall),39.9578081,-82.858132,
05/01/2018,1,4300 Roosevelt St Gary,41.540369,-87.3666957,
05/01/2018,0,5400 Block of N Rampart St New Orleans,29.9604223,-90.0210358,
05/01/2018,0,45th St and Indiana Ave Kansas City,-20.1261056,57.5340544,
05/01/2018,0,300 N Grant St Springfield,-20.1261056,57.5340544,
05/01/2018,0,Main St and Pine Dr Harwich,-20.1261056,57.5340544,
05/01/2018,4,28800 block of Startree Ln Santa Clarita,34.4737623,-118.5352078,
05/01/2018,2,Lazy Ln Bay City,28.968757,-95.9622777,
05/01/2018,0,Monty St Asheville,35.5578302,-82.6172098,
05/01/2018,0,200 block of W 1st St Kanawha,-20.1261056,57.5340544,
05/01/2018,1,2640 N Lakewood Blvd Long Beach,33.8040448,-118.1438519,
05/01/2018,0,1328 Milan Rd Sandusky,41.4454503,-82.7025241,
05/01/2018,0,S Green River Rd Evansville,37.9556496,-87.4950211,
05/01/2018,0,4000 Block of W 6th Ave Hialeah,25.8586984,-80.2967321,
05/01/2018,0,Clark St Forest City,43.259528,-93.6408541,
05/01/2018,0,Westglen Dr Fort Pierce,27.4055088,-80.3793231,
05/01/2018,0,1915 N Highland Ave Jackson,35.6530414,-88.8313778,
06/01/2018,1,Barts Rd Loris,34.0625074,-78.9869465,
06/01/2018,1,Coach St Brownsville,35.604303,-89.265579,
06/01/2018,0,Stevens Ln and IN-37 Mitchell,38.7732818,-86.5038705,
06/01/2018,0,4400 block of Adelaide Ave Richmond (North Chesterfield),-20.1261056,57.5340544,
06/01/2018,1,1200 block of E 22nd Ave Columbus,40.0050927,-82.9785224,
06/01/2018,0,200 Block of Verret St New Orleans,29.9542804,-90.0532407,
06/01/2018,0,Waterman Blvd and Hilborn Rd Fairfield,38.2732278,-122.0546911,
06/01/2018,0,Monticello Rd Columbia,34.0810794,-81.0705656,
06/01/2018,1,Smith St Hayneville,-20.1261056,57.5340544,
06/01/2018,0,4th St and Francis St Port Angeles,-20.1261056,57.5340544,
06/01/2018,2,400 block of Maury St Montgomery,32.3603517,-86.3051414,
06/01/2018,1,1600 block of Rosecrest Ave Richmond,37.5061981,-77.4351488,
06/01/2018,1,4300 block of Leimert Blvd Los Angeles,34.005967,-118.3305517,
06/01/2018,0,2217 East 28th St Lorain,41.4459554,-82.1212273,
06/01/2018,0,4800 Elmore Avenue Davenport,41.5701659,-90.5328451,
06/01/2018,1,4900 block of Briarwood Dr Nashville,36.0742458,-86.7522135,
06/01/2018,1,Borden St and Elmosre St Cincinnati,-20.1261056,57.5340544,
06/01/2018,0,SC 9 Little River,33.8689761,-78.6697042,
06/01/2018,1,12200 block of Van Nuys Blvd Sylmar (Lake View Terrace),34.282948,-118.4007334,
06/01/2018,0,10 SW 1st Ave Portland,45.523228,-122.6735703,
06/01/2018,0,1522 Tennis Club Dr Charleston,38.3344958,-81.6589622,
06/01/2018,1,4800 block of Vernon Pkwy Birmingham,33.63693,-86.6625757,
06/01/2018,0,2200 block of Washington Blvd Baltimore,39.2706931,-76.6500847,
06/01/2018,0,2000 block of N Forest Park Ave Baltimore,39.3093304,-76.7106252,
06/01/2018,0,1700 N Talman Ave Chicago,41.9122115,-87.6957899,
06/01/2018,1,SW 31st Ave and SW 4th St Miami,25.7685474,-80.2477982,
06/01/2018,0,104 Chesterfield Ct Greenville,35.5739699,-77.4135172,
06/01/2018,0,1100 block of Hudson St Helena,-20.1261056,57.5340544,
06/01/2018,0,7500 block of Felixstowe Dr Richmond,37.532277,-77.5365439,
06/01/2018,0,1900 block of Chicago Ave Kingman,35.2132206,-114.0372974,
06/01/2018,0,N 5th St Byesville,-20.1261056,57.5340544,
06/01/2018,0,19200 block of SE Yamhill St Portland,45.5149899,-122.4675373,
06/01/2018,0,231 Mill St Middleport,-20.1261056,57.5340544,
06/01/2018,0,900 block of Pacific Ave SW Albuquerque,35.0747715,-106.6607156,
06/01/2018,0,2198 E 25th St Indianapolis,39.8037089,-86.1257352,
06/01/2018,1,2501 Hayden Pkwy Roseville,38.790906,-121.3745212,
06/01/2018,0,6712 Shortcut Rd Moss Point,30.3981564,-88.5001396,
06/01/2018,0,900 block of S 15th St Saint Joseph,39.7589015,-94.8443764,
06/01/2018,0,555 Liberty St SE Salem,44.9360347,-123.0437417,
06/01/2018,0,Frankfort St and Yolanda Ave Northridge,34.2213511,-118.5426563,
06/01/2018,0,2500 NW Regency St Bend,44.0756279,-121.3525341,
06/01/2018,1,2000 block of W Gilbert St San Bernardino,34.1276252,-117.3355245,
06/01/2018,1,Deer Run Dr Roanoke Rapids,36.4375814,-77.7242979,
06/01/2018,0,11921 Kanis Rd Little Rock,34.7432692,-92.4092819,
06/01/2018,0,Hurricane Creek Kimper,37.4929206,-82.3682273,
06/01/2018,0,800 block of S Fountain St Wichita,37.6738009,-97.2907219,
06/01/2018,0,7020 Grand Canyon Dr Austin,30.3262645,-97.6978288,
06/01/2018,1,1444 NW 45th St Miami,25.8160656,-80.2231878,
06/01/2018,1,300 block of Robinson Dr Birmingham,-20.1261056,57.5340544,
06/01/2018,1,7700 block of Foley Rd Hesperia,34.3903886,-117.3792023,
06/01/2018,1,Mississippi 198 West Lucedale,30.9247534,-88.5974686,
06/01/2018,0,17000 block Cajon Blvd San Bernardino,34.2381856,-117.4329055,
06/01/2018,0,Centre St Trenton,40.205002,-74.7604594,
06/01/2018,0,7100 block of E 112th St Kansas City,38.919903,-94.5106795,
06/01/2018,1,San Rafael Dr Los Lunas,-20.1261056,57.5340544,
06/01/2018,0,Adams Rd and 238th Rd Milford,-20.1261056,57.5340544,
06/01/2018,0,Bodega Ave and Cleveland Ln Petaluma,38.231704,-122.6664669,
06/01/2018,1,5000 block of Yale Rd Memphis,35.2217145,-89.8987767,
06/01/2018,0,1200 Christian Valley Rd Auburn,38.9700712,-121.0389521,
06/01/2018,1,4430 Carpenter Hill Rd Lancaster,-20.1261056,57.5340544,
06/01/2018,0,1000 Rainbow Drive Gadsden,33.9984558,-86.0057051,
06/01/2018,0,N 47th Ave and Lafayette Ave Omaha,41.2710764,-95.9870489,
06/01/2018,2,100 block of N Pantano Rd Tucson,32.2220833,-110.8241393,
06/01/2018,0,69th and Spencer St Omaha,41.2877592,-96.0213452,
06/01/2018,1,702 W Irvington Rd Tucson,32.1635592,-110.9817839,
06/01/2018,1,300 block of North Street Greenville,-20.1261056,57.5340544,
06/01/2018,1,18196 Dupont Dr Fort Myers,26.4721871,-81.8260552,
06/01/2018,1,Memorial Rd and Fishmarket Rd Mcloud,35.3768366,-97.1180415,
06/01/2018,1,11100 block of College Ave Kansas City,38.924432,-94.5550816,
06/01/2018,1,2300 block of W Ormsby Ave Louisville,38.2358173,-85.7949294,
06/01/2018,0,1200 Block of S Madison St Stockton,37.940173,-121.2926464,
06/01/2018,1,16th St and Myrtle Ave Jacksonville,-20.1261056,57.5340544,
06/01/2018,0,Blossom Hill Road San Jose,37.2462929,-121.8883189,
06/01/2018,1,20 Russell Dr Covington,33.5707673,-83.7697168,
06/01/2018,1,7000 block of Forest Ave Philadelphia,-20.1261056,57.5340544,
06/01/2018,1,1151 Jefferson St Nashville,36.1711148,-86.8002269,
06/01/2018,0,2900 block of Martha St Anderson,40.45135,-122.2986287,
06/01/2018,0,Sherman Ave and Manhattan Ave Jersey City,40.7415259,-74.0511028,
06/01/2018,1,1300 Block of Orton St Jacksonville,30.2991336,-81.7449088,
06/01/2018,1,849 Edgewood Ave N Jacksonville,30.334241,-81.7327587,
06/01/2018,1,8919 N 30th St Omaha,41.3416528,-95.9637444,
06/01/2018,0,LA 308 Belle Rose,30.0424359,-91.0494955,
06/01/2018,0,500 block of S Muriel Dr Barstow,34.8952423,-117.0148165,
06/01/2018,1,100 block of Wareham Pl Hagerstown,-20.1261056,57.5340544,
06/01/2018,0,1200 block of W 11th St Erie,42.1150924,-80.1096755,
06/01/2018,1,18000 block of Frontier Rd Yarnell,34.2799334,-112.7616202,
06/01/2018,0,4232 Acuff St Knoxville,36.0126137,-83.9283526,
06/01/2018,0,2723 S 8900 W Magna,40.710519,-112.1057157,
06/01/2018,0,310 Kamehameha Hwy Aiea,21.3871739,-157.9559024,
06/01/2018,2,900 block of S Maple St Nampa,-20.1261056,57.5340544,
06/01/2018,0,5700 block of Stephen Reid Rd Huntingtown,38.6450468,-76.6278992,
06/01/2018,0,600 block of 18th Ave Greeley,40.4273306,-104.7098736,
06/01/2018,2,9808 16th Ave SW Seattle,47.5151346,-122.3569922,
06/01/2018,1,3100 block of Buena Vista Terrace SE Washington,38.8523458,-76.9676302,
06/01/2018,0,800 block of N Raymond Ave Pasadena,34.1596738,-118.1512126,
06/01/2018,0,25 Canton St Worcester,42.2487918,-71.8049798,
06/01/2018,0,883 Whalley Ave New Haven,41.3270574,-72.9618287,
06/01/2018,0,6956 Garth Rd Baytown,29.8029322,-94.9830695,
06/01/2018,0,2700 block of Pickering Drive Memphis,35.074289,-89.8718961,
06/01/2018,1,Red Rock Dr and Apache Trl Round Rock,30.5040127,-97.6432367,
06/01/2018,1,1635 North Loop W Houston,29.8117213,-95.4325721,
06/01/2018,1,4424 Richardson Ave Bronx,40.8994476,-73.8568907,
06/01/2018,0,2800 N California Ave Chicago,41.9251418,-87.6998965,
06/01/2018,0,Iberville St and Royal St New Orleans,29.961054,-90.0369831,
06/01/2018,0,407 E Main St Mountville,40.0377567,-76.42268,
06/01/2018,1,7200 S May St Chicago,41.7631171,-87.6553257,
06/01/2018,0,I-10 Rayne,30.252303,-92.2533078,
06/01/2018,0,1300 block of Stoneleigh Ct Leavenworth,39.3028882,-94.9375617,
06/01/2018,0,22 W Long St Akron,41.0571477,-81.5320461,
06/01/2018,0,3900 block of Callaway Ave Baltimore,39.3337277,-76.6777752,
06/01/2018,1,6100 Block of Macbeth Dr Baltimore,39.3678148,-76.6008667,
06/01/2018,0,410 Andalusia Blvd Cape Coral,26.6604824,-81.9599747,
06/01/2018,0,67th and S Champlain Chicago,41.773061,-87.6115857,
06/01/2018,0,6200 Block of California St Brooksville,-20.1261056,57.5340544,
06/01/2018,1,17700 block of 76th Ave W Edmonds,47.8374208,-122.3381858,
06/01/2018,0,2300 W Jackson Blvd Chicago,41.8778574,-87.6866323,
06/01/2018,2,2536 Wible Rd Bakersfield,35.3314176,-119.0409527,
06/01/2018,0,732 Reading Rd Mason,39.3497453,-84.326298,
06/01/2018,0,3200 Block of SR 64 E Bradenton,27.4978571,-82.5102439,
06/01/2018,0,3100 W Polk St Chicago,41.8712018,-87.70575,
06/01/2018,0,2300 E 69th St Chicago,41.7698769,-87.5720879,
06/01/2018,1,123 N E St San Bernardino,34.1016077,-117.2959998,
06/01/2018,1,4515 26th St W Bradenton,27.460075,-82.5851976,
06/01/2018,0,I-40 Raleigh,35.799854,-78.7438433,
06/01/2018,0,2500 W Flournoy St Chicago,41.8729584,-87.6908284,
06/01/2018,0,9200 block of 17th SW Seattle,47.5208644,-122.3583411,
06/01/2018,2,I-96 and Alden Nash Ave SE Lowell,-20.1261056,57.5340544,
06/01/2018,0,Bedord Valley Rd Bedford,-20.1261056,57.5340544,
06/01/2018,0,700 block of Summer St Springfield,39.9156718,-83.8019186,
06/01/2018,0,100 block of Beranda Street Lafayette,30.2548456,-92.0199998,
06/01/2018,1,500 Block of Hickory Ave Statesville,35.7612393,-80.8920716,
06/01/2018,2,1500 block of W Merton Wichita,37.6641811,-97.3595542,
06/01/2018,1,1900 Block of Americana Blvd Orlando,28.4847427,-81.4069046,
06/01/2018,1,Albany Dr Seabrook,-20.1261056,57.5340544,
06/01/2018,0,E Colfax Ave and Spruce St Denver,39.7401063,-104.8997441,
06/01/2018,0,1000 N Jackson St Salem,37.649932,-91.5402271,
06/01/2018,1,9475 W Desert Inn Rd Las Vegas,36.1292365,-115.3010415,
06/01/2018,1,400 Stillmeadow Ln York,40.0020051,-76.7527039,
06/01/2018,0,1228 Leon Ln Daytona Beach,29.2346323,-81.0669384,
06/01/2018,0,2700 block of Pacific Ave Atlantic City,39.3537908,-74.4456606,
06/01/2018,1,100 Block of North End Dr Brunswick,31.2596946,-81.4415842,
06/01/2018,0,1300 Harrison St Gary,41.589619,-87.3487257,
07/01/2018,0,1500 block of Toole Missoula,46.878022,-114.0145797,
07/01/2018,1,600 Block of Meadows Ln Social Circle,33.6782158,-83.7127911,
07/01/2018,0,2800 block of Old Home Rd Springfield,-20.1261056,57.5340544,
07/01/2018,0,S Grand Blvd and Alberta St Saint Louis,38.5856308,-90.2471443,
07/01/2018,0,300 Nassau St Park Forest,41.4755471,-87.6854497,
07/01/2018,0,2300 block of Dorn Rd Waterford,42.0298002,-80.0748496,
07/01/2018,0,448 S 29th St Lincoln,40.8090476,-96.681668,
07/01/2018,0,17585 Lakeshore Blvd Cleveland,41.5834155,-81.5599787,
07/01/2018,0,5100 block of Trevon St Eugene,44.0884165,-123.1916758,
07/01/2018,0,1277 E Butterfield Rd Wheaton,41.8301493,-88.0912344,
07/01/2018,0,Virginia St and Saint Lawrence Ave Reno,39.5182889,-119.8114907,
07/01/2018,0,105 2nd St SE Austin,30.2643377,-97.7464493,
07/01/2018,0,Colony Rd and Smucker Rd Newport News,37.1138576,-76.5234401,
07/01/2018,0,W Macdonald Ave and Curry St Richmond,37.9357068,-122.3735298,
07/01/2018,0,1500 block of Freret St New Orleans,29.9437439,-90.08664,
07/01/2018,0,2400 block of Warwick Ave Richmond,37.4933447,-77.4440684,
07/01/2018,2,1069 Halifax Rd Danville,36.5872754,-79.3670703,
07/01/2018,1,4500 block of N Heathdale Ave Covina,34.0938267,-117.9030361,
07/01/2018,0,3608 Wericoba Dr Macon,32.7990139,-83.6456793,
07/01/2018,0,1800 S Walnut St Bloomington,39.1469788,-86.5354308,
07/01/2018,0,3600 block of Loch Raven Blvd Baltimore,39.332782,-76.5998849,
07/01/2018,1,Bennett Rd and Lotta Rd Karnack,32.5605935,-94.1191145,
07/01/2018,0,1200 block of King Arthur Rd Chattanooga,35.0143922,-85.1724626,
07/01/2018,0,600 Block of E Oak St Stockton,37.959817,-121.2870476,
07/01/2018,0,1001 S Gadsden St Tallahassee,30.4356122,-84.2821654,
07/01/2018,0,5300 Hamilton Middletown Rd Middletown (Liberty Township),39.4366742,-84.4438524,
07/01/2018,0,Salt Marsh Dr Hilton Head Island,32.2344028,-80.809595,
07/01/2018,0,3700 block of Maywood Ave Dayton,39.748221,-84.250167,
07/01/2018,1,4300 block of S Malcolm X Blvd Dallas,32.7590731,-96.7584557,
07/01/2018,0,1711 Creighton Ave Fort Wayne,41.0657,-85.1179669,
07/01/2018,2,100 block of Sutton Way Irmo,34.144421,-81.1993074,
07/01/2018,0,900 block of Shirley Ave Toledo,41.6492465,-83.5982413,
07/01/2018,0,4100 block of Monroe St Toledo,41.680134,-83.6044973,
07/01/2018,0,1700 N Talman Ave Chicago,41.9122115,-87.6957899,
07/01/2018,1,5800 block of Cherry Hill Rd Montgomery,32.3133712,-86.2262934,
07/01/2018,0,Walnut St Gadsden,34.0114463,-86.0145929,
07/01/2018,1,W 52nd St and Kouba Ave Cleveland,41.4675235,-81.7244772,
07/01/2018,0,Third St and Lamokin St Chester,-20.1261056,57.5340544,
07/01/2018,1,1306 Idaho St Belgrade,45.7631205,-111.169778,
07/01/2018,0,9000 block of Annapolis Rd Lanham,38.9623389,-76.8642977,
07/01/2018,0,3500 block of Minnesota Ave SE Washington,38.8863969,-76.958028,
07/01/2018,1,U.S. Highway 29 Union Springs,32.1385469,-85.7156597,
07/01/2018,0,2800 Millbrook Dr Fort Wayne,41.0583894,-85.1714109,
07/01/2018,0,500 block of Pine St Mullan,-20.1261056,57.5340544,
07/01/2018,1,3865 Astrozon Blvd Colorado Springs,38.7960273,-104.7587273,
07/01/2018,0,S Springdale Loop Ardmore,34.1559832,-97.1190135,
07/01/2018,0,3589 N Carson St Carson City,39.190459,-119.7745818,
07/01/2018,0,9638 Milliken Ave Rancho Cucamonga,34.0787105,-117.5608994,
07/01/2018,0,4425 FM 2351 Rd Friendswood,29.5519136,-95.1871669,
07/01/2018,0,Elliot Rd Potsdam,44.7346445,-75.0890086,
07/01/2018,0,506 GA 133 S Moultrie,31.1679693,-83.7511214,
07/01/2018,0,600 Block of 9th Ave SE Moultrie,31.1710234,-83.783957,
07/01/2018,0,2nd Ave S Fargo,46.8729725,-96.8090532,
07/01/2018,1,1100 S 4th Ave Jonesboro,40.4753017,-85.639876,
07/01/2018,0,703 Laclede Ave Carterville,37.7526195,-89.0749308,
07/01/2018,0,536 Aberdeen Rd Raeford,34.989505,-79.2567964,
07/01/2018,1,W 52nd St and Camp Robinson Rd North Little Rock,34.802557,-92.2688403,
07/01/2018,0,1200 block of County Rd 350 Fulton,-20.1261056,57.5340544,
07/01/2018,0,12970 Westhiemer Rd Houston,29.7365887,-95.617553,
07/01/2018,0,5700 block of Westover Village Drive Richmond,37.5114383,-77.5057012,
07/01/2018,0,5th and Ohio Street Lexington,38.0486333,-84.4864414,
07/01/2018,1,SR 821 Ellensburg,46.8003769,-120.4646877,
07/01/2018,0,Peach Ave and Clay Ave Fresno,36.7542318,-119.7205778,
07/01/2018,1,119 Bennett Dr Clarksville,36.5514305,-87.4038216,
07/01/2018,0,2100 E Main St Danville,39.7621454,-86.4854673,
07/01/2018,0,Wildflower Fresno,36.5037782,-119.6990206,
07/01/2018,1,Wahatchee Creek Rd Elberton,34.0713694,-82.7728984,
07/01/2018,1,400 block of Castleview Dr Murfreesboro,35.8414656,-86.380821,
07/01/2018,0,Claudia Dr Columbia,34.0678341,-80.9715398,
07/01/2018,0,Colorado Ave Lorain,41.4651758,-82.1362631,
07/01/2018,0,500 block of Fuller Street Shreveport,32.4534321,-93.7673386,
07/01/2018,1,Lydgate Ave Memphis,35.0375041,-90.0648871,
07/01/2018,0,800 block of Wisconsin Ave Beloit,42.504942,-89.0266562,
07/01/2018,1,100 block of W Motor Way Colorado Springs,38.8137781,-104.8329695,
07/01/2018,1,900 block of E 17th St Sheffield,34.7505321,-87.6954497,
07/01/2018,0,Foxwell Terrace Wingdale,41.662919,-73.5497091,
07/01/2018,1,Fern Street and Southward Drive Gulfport,30.3697313,-89.1063893,
07/01/2018,0,5000 S Hoyne Ave Chicago,41.8030228,-87.6791646,
07/01/2018,1,2800 block of Shahan Ave Gadsden,34.0203057,-86.0495525,
07/01/2018,1,400 block of E Mill St Santa Maria,34.9551504,-120.4334282,
07/01/2018,0,2000 5th Ave N Fort Dodge,42.5115112,-94.173097,
07/01/2018,0,2000 block of Moran Ave Modesto,37.6468617,-120.9641354,
07/01/2018,0,E Olive Ave Fresno,36.757628,-119.7249876,
07/01/2018,1,California Ave and Elm Ave Fresno,36.7208174,-119.7937731,
07/01/2018,0,Peach Ave and Olive Ave Fresno,36.7576851,-119.7224416,
07/01/2018,0,E Mckenzie Fresno,36.7469352,-119.7328543,
07/01/2018,1,802 North Cedar Tallulah,32.4135853,-91.1850558,
07/01/2018,0,3146 Alpine Rd Augusta,33.4739424,-82.0682471,
07/01/2018,1,1600 Block of W 8th St Jacksonville,30.3470895,-81.6843141,
07/01/2018,0,5200 block of Broadway Avenue Shreveport,32.463499,-93.8082789,
07/01/2018,1,Washout Rd Henderson,-20.1261056,57.5340544,
07/01/2018,0,1200 N Springfield Ave Chicago,41.9027009,-87.7260412,
07/01/2018,0,1900 block of Hackett Rd Ceres,37.5875264,-120.9634826,
07/01/2018,0,1400 W Washburne Ave Chicago,41.8663371,-87.6641102,
07/01/2018,0,1900 N Sawyer Ave Chicago,41.9156883,-87.7111898,
07/01/2018,0,700 block of W Main St West Point,36.7279831,-91.8606237,
07/01/2018,0,200 block of Woodhaven Rd Newport News,37.1540537,-76.5494539,
07/01/2018,1,500 block of 12th Ave SE Minneapolis,44.9825973,-93.2399529,
07/01/2018,2,5100 block of 200th St E Spanaway,47.0746637,-122.3612513,
07/01/2018,1,600 SW 14th Ave Homestead,25.4757037,-80.4958842,
07/01/2018,0,1700 block of N 2nd St Nashville,36.1941645,-86.7721595,
07/01/2018,0,Laurel St and Douglass Ave Memphis,-20.1261056,57.5340544,
07/01/2018,0,1327 Ashton Rd Hanover,39.1611837,-76.7076105,
07/01/2018,0,Ford Rd and W Shelby Dr Memphis,35.0209082,-90.0834128,
07/01/2018,1,8900 block of Braeswood Houston,29.6731617,-95.5355178,
07/01/2018,4,11935 Bella Vista Ct Bella Vista,40.634945,-122.2329975,
07/01/2018,0,5700 S State St Chicago,41.790863,-87.6281287,
07/01/2018,0,3700 N Portage Pl Decatur,39.8881393,-88.9420635,
07/01/2018,0,1600 W Harrison Ave Decatur,39.8636486,-88.9861895,
07/01/2018,0,Kuapala Street Pahala,-20.1261056,57.5340544,
07/01/2018,1,Peacham Rd Barnet,44.2778628,-72.1755733,
07/01/2018,0,2100 block of W Monroe St Chicago,41.8795637,-87.681622,
07/01/2018,0,Ala Akua St Waianae,21.4562527,-158.1977875,
07/01/2018,1,9119 Central Ave SE Albuquerque,35.0739772,-106.5477291,
07/01/2018,1,46 Dorothy St Portland,43.6903949,-70.3061343,
07/01/2018,0,2500 block of Crums Ln Louisville (Shively),38.194792,-85.8230824,
07/01/2018,1,400 block of S 59th St Tacoma,47.203679,-122.4386582,
07/01/2018,0,5225 W Broward Blvd Plantation,26.1219053,-80.2210269,
07/01/2018,1,378 Morris Dr Gaffney,-20.1261056,57.5340544,
07/01/2018,1,12900 block of E Seven Mile Detroit,42.4344943,-82.9943627,
07/01/2018,1,Brownfield Rd De Mossville (Demossville),38.7562493,-84.4923312,
07/01/2018,0,Slagle Rd and OH 88 Windham,41.2545766,-81.1186907,
07/01/2018,1,10376 Rosemount Dr Tampa,28.0450696,-82.5266596,
07/01/2018,1,1005 Saint Anne St Sparta,43.941301,-90.8270367,
07/01/2018,1,NW 39th Ave Fort Lauderdale (Lauderhill),26.1284733,-80.2032087,
07/01/2018,0,19th St and Greenwood St Harrisburg,-20.1261056,57.5340544,
07/01/2018,0,5800 block of N 35th St Milwaukee,43.1230527,-87.9580399,
07/01/2018,0,3000 S Adams St Tallahassee,30.4092835,-84.2865408,
07/01/2018,1,9800 block of W Fond du Lac Ave Milwaukee,43.1353936,-88.0366273,
07/01/2018,0,2200 block of Vine St Cincinnati,39.1209919,-84.5175873,
07/01/2018,0,Rice St and Geranium Ave Saint Paul,44.9756199,-93.1081304,
07/01/2018,0,1700 block of Marston Rd Columbus,-20.1261056,57.5340544,
07/01/2018,0,4233 Peachtree Pl Granite Falls,-20.1261056,57.5340544,
07/01/2018,0,Tullis Drive and Woodland Drive New Orleans (Algiers),29.9046247,-89.9938809,
07/01/2018,0,19900 NW 37th Ave Miami Gardens,25.956529,-80.2682415,